[
  {
    "line": "BMT_Brighton_Line_3",
    "company": "BMT",
    "stations": [
      {
        "station": "DeKalb Avenue",
        "latitude": 40.690253999999996,
        "longitude": -73.982277,
        "opened_year": 1920,
        "opened_raw": "August 1, 1920",
        "closed_year": null,
        "closed_raw": null,
        "company": "BMT",
        "services": "B  \u200bD  \u200bN  \u200bQ  \u200bR  \u200bW",
        "notes": "6 tracks; only four outer tracks stop at this station. Within station, outermost tracks are used by trains using the bridge, and center tracks are used by trains using the tunnel. Innermost tracks are used by BMT Fourth Avenue Line express trains from the bridge."
      },
      {
        "station": "Atlantic Avenue\u2013Barclays Center",
        "latitude": 40.746,
        "longitude": -74.0733,
        "opened_year": 1920,
        "opened_raw": "August 1, 1920",
        "closed_year": null,
        "closed_raw": null,
        "company": "BMT",
        "services": "B  \u200bQ",
        "notes": "2  \u200b3  \u200b4  \u200b5  (IRT Eastern Parkway Line)\nD  \u200bN  \u200bR  \u200bW  (BMT Fourth Avenue Line)\nConnection to LIRR at Atlantic Terminal"
      },
      {
        "station": "Seventh Avenue",
        "latitude": 40.679352,
        "longitude": -73.973694,
        "opened_year": 1920,
        "opened_raw": "August 1, 1920",
        "closed_year": null,
        "closed_raw": null,
        "company": "BMT",
        "services": "B  \u200bQ",
        "notes": null
      },
      {
        "station": "Prospect Park",
        "latitude": 40.661500000000004,
        "longitude": -73.9625,
        "opened_year": 1905,
        "opened_raw": "April 4, 1905",
        "closed_year": null,
        "closed_raw": null,
        "company": "BMT",
        "services": "B  \u200bQ",
        "notes": "S  (BMT Franklin Avenue Line)"
      },
      {
        "station": "Prospect Park",
        "latitude": 40.661500000000004,
        "longitude": -73.9625,
        "opened_year": 1905,
        "opened_raw": "April 4, 1905",
        "closed_year": null,
        "closed_raw": null,
        "company": "BMT",
        "services": "S  (northbound track)",
        "notes": "B  \u200bQ \nPrior to the 1920 expansion, the Brighton Line followed the current Franklin Avenue Line north of this station."
      },
      {
        "station": "Parkside Avenue",
        "latitude": 40.655300000000004,
        "longitude": -73.96170000000001,
        "opened_year": 1905,
        "opened_raw": "April 4, 1905",
        "closed_year": null,
        "closed_raw": null,
        "company": "BMT",
        "services": "Q",
        "notes": null
      },
      {
        "station": "Church Avenue",
        "latitude": 40.649660000000004,
        "longitude": -73.963646,
        "opened_year": 1907,
        "opened_raw": "August 23, 1907",
        "closed_year": null,
        "closed_raw": null,
        "company": "BMT",
        "services": "B  \u200bQ",
        "notes": "Originally called Flatbush station, or sometimes Church Lane, Flatbush."
      },
      {
        "station": "Beverley Road",
        "latitude": 40.644600000000004,
        "longitude": -73.9645,
        "opened_year": 1907,
        "opened_raw": "August 23, 1907",
        "closed_year": null,
        "closed_raw": null,
        "company": "BMT",
        "services": "Q",
        "notes": null
      },
      {
        "station": "Cortelyou Road",
        "latitude": 40.641600000000004,
        "longitude": -73.96430000000001,
        "opened_year": 1907,
        "opened_raw": "August 23, 1907",
        "closed_year": null,
        "closed_raw": null,
        "company": "BMT",
        "services": "Q",
        "notes": "Formerly known as Avenue C station"
      },
      {
        "station": "Newkirk Plaza",
        "latitude": 40.6357,
        "longitude": -73.96300000000001,
        "opened_year": 1907,
        "opened_raw": "August 23, 1907",
        "closed_year": null,
        "closed_raw": null,
        "company": "BMT",
        "services": "B  \u200bQ",
        "notes": "Originally known as Parkville station"
      },
      {
        "station": "Avenue H",
        "latitude": 40.63,
        "longitude": -73.962,
        "opened_year": 1907,
        "opened_raw": "August 23, 1907",
        "closed_year": null,
        "closed_raw": null,
        "company": "BMT",
        "services": "Q",
        "notes": null
      },
      {
        "station": "Avenue J",
        "latitude": 40.6253,
        "longitude": -73.9614,
        "opened_year": 1907,
        "opened_raw": "August 23, 1907",
        "closed_year": null,
        "closed_raw": null,
        "company": "BMT",
        "services": "Q",
        "notes": null
      },
      {
        "station": "Avenue M",
        "latitude": 40.618300000000005,
        "longitude": -73.95960000000001,
        "opened_year": 1907,
        "opened_raw": "August 23, 1907",
        "closed_year": null,
        "closed_raw": null,
        "company": "BMT",
        "services": "Q",
        "notes": "Originally known as South Greenfield station, and later Elm Avenue station"
      },
      {
        "station": "Kings Highway",
        "latitude": 40.609229,
        "longitude": -73.95884000000001,
        "opened_year": 1907,
        "opened_raw": "August 23, 1907",
        "closed_year": null,
        "closed_raw": null,
        "company": "BMT",
        "services": "B  \u200bQ",
        "notes": "B82 Select Bus Service\nOriginally described as at Kings Highway, near the Prospect Park Fair Grounds"
      },
      {
        "station": "Avenue U",
        "latitude": 40.5989,
        "longitude": -73.95580000000001,
        "opened_year": 1907,
        "opened_raw": "August 23, 1907",
        "closed_year": null,
        "closed_raw": null,
        "company": "BMT",
        "services": "Q",
        "notes": "Originally known as Gravesend station"
      },
      {
        "station": "Neck Road",
        "latitude": 40.5951,
        "longitude": -73.95530000000001,
        "opened_year": 1907,
        "opened_raw": "August 23, 1907",
        "closed_year": null,
        "closed_raw": null,
        "company": "BMT",
        "services": "Q",
        "notes": "Former transfer to LIRR"
      },
      {
        "station": "Sheepshead Bay",
        "latitude": 40.5872,
        "longitude": -73.9533,
        "opened_year": 1907,
        "opened_raw": "August 23, 1907",
        "closed_year": null,
        "closed_raw": null,
        "company": "BMT",
        "services": "B  \u200bQ",
        "notes": "Originally described as at Coney Island Creek, Sheepshead Bay."
      },
      {
        "station": "Brighton Beach",
        "latitude": 40.577600000000004,
        "longitude": -73.9616,
        "opened_year": 1907,
        "opened_raw": "August 23, 1907",
        "closed_year": null,
        "closed_raw": null,
        "company": "BMT",
        "services": "B  \u200bQ",
        "notes": "Originally serviced the Brighton Beach Hotel at this location."
      },
      {
        "station": "Ocean Parkway",
        "latitude": 40.576111,
        "longitude": -73.968333,
        "opened_year": 1917,
        "opened_raw": "April 22, 1917",
        "closed_year": null,
        "closed_raw": null,
        "company": "BMT",
        "services": "Q",
        "notes": null
      },
      {
        "station": "West Eighth Street\u2013New York Aquarium",
        "latitude": 40.576178,
        "longitude": -73.9758,
        "opened_year": 1919,
        "opened_raw": "May 19, 1919",
        "closed_year": null,
        "closed_raw": null,
        "company": "BMT",
        "services": "Q",
        "notes": "F  <F> \u200b (IND Culver Line)\nBrighton tracks on upper level"
      },
      {
        "station": "Coney Island\u2013Stillwell Avenue",
        "latitude": 40.577222,
        "longitude": -73.981111,
        "opened_year": 1919,
        "opened_raw": "May 29, 1919",
        "closed_year": null,
        "closed_raw": null,
        "company": "BMT",
        "services": "Q",
        "notes": "D  (BMT West End Line)\nF  <F> \u200b (IND Culver Line)\nN  (BMT Sea Beach Line)"
      }
    ]
  },
  {
    "line": "BMT_Broadway_Line_3",
    "company": "BMT",
    "stations": [
      {
        "station": "Lexington Avenue\u201359th Street",
        "latitude": 40.7625815766276,
        "longitude": -73.967930335264,
        "opened_year": 1919,
        "opened_raw": "September 1, 1919",
        "closed_year": null,
        "closed_raw": null,
        "company": "BMT",
        "services": "N  \u200bR  \u200bW",
        "notes": "IRT Lexington Avenue Line (4  \u200b5  \u200b6  <6> )\nOut-of-system transfer with MetroCard/OMNY: 63rd Street Lines (F  \u200bM \u200b N  \u200bQ  \u200bR ) at Lexington Avenue\u201363rd Street\nRoosevelt Island Tramway"
      },
      {
        "station": "Fifth Avenue/59th Street",
        "latitude": 40.764779,
        "longitude": -73.972621,
        "opened_year": 1919,
        "opened_raw": "September 1, 1919",
        "closed_year": null,
        "closed_raw": null,
        "company": "BMT",
        "services": "N  \u200bR  \u200bW",
        "notes": null
      },
      {
        "station": "57th Street\u2013Seventh Avenue",
        "latitude": 40.765460999999995,
        "longitude": -73.980088,
        "opened_year": 1919,
        "opened_raw": "July 10,\n1919",
        "closed_year": null,
        "closed_raw": null,
        "company": "BMT",
        "services": "N  \u200bQ  \u200bR  \u200bW",
        "notes": null
      },
      {
        "station": "49th Street",
        "latitude": 40.760400000000004,
        "longitude": -73.9838,
        "opened_year": 1919,
        "opened_raw": "July 10,\n1919",
        "closed_year": null,
        "closed_raw": null,
        "company": "BMT",
        "services": "N  \u200bQ  \u200bR  \u200bW",
        "notes": "Accessible northbound only"
      },
      {
        "station": "Times Square\u201342nd Street",
        "latitude": 40.754327657442104,
        "longitude": -73.9868657245554,
        "opened_year": 1918,
        "opened_raw": "January 5, 1918",
        "closed_year": null,
        "closed_raw": null,
        "company": "BMT",
        "services": "N  \u200bQ  \u200bR  \u200bW",
        "notes": "IRT Broadway\u2013Seventh Avenue Line (1  \u200b2  \u200b3 )\nIRT Flushing Line (7  <7> \u200b)\n42nd Street Shuttle (S )\nIND Eighth Avenue Line (A  \u200bC  \u200bE ) at 42nd Street\u2013Port Authority Bus Terminal\nIND Sixth Avenue Line (B  \u200bD  \u200bF  <F>  \u200bM ) at 42nd Street\u2013Bryant Park, daytime only\nPort Authority Bus Terminal"
      },
      {
        "station": "34th Street\u2013Herald Square",
        "latitude": 40.7499033069405,
        "longitude": -73.9879853216841,
        "opened_year": 1918,
        "opened_raw": "January 5, 1918",
        "closed_year": null,
        "closed_raw": null,
        "company": "BMT",
        "services": "N  \u200bQ  \u200bR  \u200bW",
        "notes": "IND Sixth Avenue Line (B  \u200bD  \u200bF  <F>  \u200bM )\nPenn Station: Amtrak, Long Island Rail Road, and New Jersey Transit\nM34/M34A Select Bus Service\nConnection to PATH at 33rd Street"
      },
      {
        "station": "28th Street",
        "latitude": 40.745200000000004,
        "longitude": -73.9888,
        "opened_year": 1918,
        "opened_raw": "January 5, 1918",
        "closed_year": null,
        "closed_raw": null,
        "company": "BMT",
        "services": "N  \u200bQ  \u200bR  \u200bW",
        "notes": null
      },
      {
        "station": "23rd Street",
        "latitude": 40.7429,
        "longitude": -73.9929,
        "opened_year": 1918,
        "opened_raw": "January 5, 1918",
        "closed_year": null,
        "closed_raw": null,
        "company": "BMT",
        "services": "N  \u200bQ  \u200bR  \u200bW",
        "notes": "M23 Select Bus Service"
      },
      {
        "station": "14th Street\u2013Union Square",
        "latitude": null,
        "longitude": null,
        "opened_year": 1917,
        "opened_raw": "September 4, 1917",
        "closed_year": null,
        "closed_raw": null,
        "company": "BMT",
        "services": "N  \u200bQ  \u200bR  \u200bW",
        "notes": "IRT Lexington Avenue Line (4  \u200b5  \u200b6  <6> )\nBMT Canarsie Line (L )\nM14A / M14D Select Bus Service"
      },
      {
        "station": "Eighth Street\u2013New York University",
        "latitude": null,
        "longitude": null,
        "opened_year": 1917,
        "opened_raw": "September 4, 1917",
        "closed_year": null,
        "closed_raw": null,
        "company": "BMT",
        "services": "N  \u200bQ  \u200bR  \u200bW",
        "notes": null
      },
      {
        "station": "Prince Street",
        "latitude": 40.7242,
        "longitude": -73.9978,
        "opened_year": 1917,
        "opened_raw": "September 4, 1917",
        "closed_year": null,
        "closed_raw": null,
        "company": "BMT",
        "services": "N  \u200bQ  \u200bR  \u200bW",
        "notes": null
      },
      {
        "station": "Canal Street",
        "latitude": 40.7151,
        "longitude": -73.99260000000001,
        "opened_year": 1917,
        "opened_raw": "September 4, 1917",
        "closed_year": null,
        "closed_raw": null,
        "company": "BMT",
        "services": "N  \u200bQ",
        "notes": "IRT Lexington Avenue Line (4  \u200b6  <6> )\nBMT Nassau Street Line (J  \u200bZ )\nExpress station originally known as Broadway"
      },
      {
        "station": "Canal Street",
        "latitude": 40.7151,
        "longitude": -73.99260000000001,
        "opened_year": 1918,
        "opened_raw": "January 5, 1918",
        "closed_year": null,
        "closed_raw": null,
        "company": "BMT",
        "services": "N  \u200bR  \u200bW",
        "notes": "IRT Lexington Avenue Line (4  \u200b6  <6> )\nBMT Nassau Street Line (J  \u200bZ )\nExpress station originally known as Broadway"
      },
      {
        "station": "City Hall",
        "latitude": 40.7125,
        "longitude": -74.00370000000001,
        "opened_year": 1918,
        "opened_raw": "January 5, 1918",
        "closed_year": null,
        "closed_raw": null,
        "company": "BMT",
        "services": "N  \u200bR  \u200bW",
        "notes": null
      },
      {
        "station": "Cortlandt Street",
        "latitude": 40.7107,
        "longitude": -74.0112,
        "opened_year": 1918,
        "opened_raw": "January 5, 1918",
        "closed_year": null,
        "closed_raw": null,
        "company": "BMT",
        "services": "N  \u200bR  \u200bW",
        "notes": "IRT Broadway\u2013Seventh Avenue Line (2  \u200b3 ) at Park Place\nIND Eighth Avenue Line (A  \u200bC ) at Chambers Street\nIND Eighth Avenue Line (E ) at World Trade Center\nConnection to PATH at World Trade Center"
      },
      {
        "station": "Rector Street",
        "latitude": 40.707778,
        "longitude": -74.013333,
        "opened_year": 1918,
        "opened_raw": "January 5, 1918",
        "closed_year": null,
        "closed_raw": null,
        "company": "BMT",
        "services": "N  \u200bR  \u200bW",
        "notes": null
      },
      {
        "station": "Whitehall Street\u2013South Ferry",
        "latitude": 40.701747222418604,
        "longitude": -74.0128,
        "opened_year": 1918,
        "opened_raw": "September 20, 1918",
        "closed_year": null,
        "closed_raw": null,
        "company": "BMT",
        "services": "N  \u200bR  \u200bW",
        "notes": "IRT Broadway\u2013Seventh Avenue Line (1 )\nM15 Select Bus Service\nStaten Island Ferry at South Ferry\nSouthern terminal for W  service"
      }
    ]
  },
  {
    "line": "BMT_Canarsie_Line_3",
    "company": "BMT",
    "stations": [
      {
        "station": "Eighth Avenue",
        "latitude": 40.739779,
        "longitude": -74.002533,
        "opened_year": 1931,
        "opened_raw": "May 30, 1931",
        "closed_year": null,
        "closed_raw": null,
        "company": "BMT",
        "services": null,
        "notes": "A  \u200bC  \u200bE  (IND Eighth Avenue Line)\nM14A / M14D Select Bus Service"
      },
      {
        "station": "Sixth Avenue",
        "latitude": 40.737300000000005,
        "longitude": -73.9967,
        "opened_year": 1924,
        "opened_raw": "June 30, 1924",
        "closed_year": null,
        "closed_raw": null,
        "company": "BMT",
        "services": null,
        "notes": "F  <F>  \u200bM  (IND Sixth Avenue Line at 14th Street)\n1  \u200b2  \u200b3  (IRT Broadway\u2013Seventh Avenue Line at 14th Street)\nConnection to PATH at 14th Street\nM14A / M14D Select Bus Service"
      },
      {
        "station": "Union Square",
        "latitude": 40.7346,
        "longitude": -73.99035,
        "opened_year": 1924,
        "opened_raw": "June 30, 1924",
        "closed_year": null,
        "closed_raw": null,
        "company": "BMT",
        "services": null,
        "notes": "N  \u200bQ  \u200bR  \u200bW  (BMT Broadway Line)\n4  \u200b5  \u200b6  <6>  (IRT Lexington Avenue Line)\nM14A / M14D Select Bus Service"
      },
      {
        "station": "Third Avenue",
        "latitude": 40.733200000000004,
        "longitude": -73.9872,
        "opened_year": 1924,
        "opened_raw": "June 30, 1924",
        "closed_year": null,
        "closed_raw": null,
        "company": "BMT",
        "services": null,
        "notes": "M14A / M14D Select Bus Service"
      },
      {
        "station": "First Avenue",
        "latitude": 40.731300000000005,
        "longitude": -73.9826,
        "opened_year": 1924,
        "opened_raw": "June 30, 1924",
        "closed_year": null,
        "closed_raw": null,
        "company": "BMT",
        "services": null,
        "notes": "M14A / M14D Select Bus Service\nNorthbound M15 Select Bus Service"
      },
      {
        "station": "Bedford Avenue",
        "latitude": 40.7177,
        "longitude": -73.9576,
        "opened_year": 1924,
        "opened_raw": "June 30, 1924",
        "closed_year": null,
        "closed_raw": null,
        "company": "BMT",
        "services": null,
        "notes": null
      },
      {
        "station": "Lorimer Street",
        "latitude": 40.712751999999995,
        "longitude": -73.951464,
        "opened_year": 1924,
        "opened_raw": "June 30, 1924",
        "closed_year": null,
        "closed_raw": null,
        "company": "BMT",
        "services": null,
        "notes": "G  (IND Crosstown Line at Metropolitan Avenue)"
      },
      {
        "station": "Graham Avenue",
        "latitude": 40.7145,
        "longitude": -73.9444,
        "opened_year": 1924,
        "opened_raw": "June 30, 1924",
        "closed_year": null,
        "closed_raw": null,
        "company": "BMT",
        "services": null,
        "notes": null
      },
      {
        "station": "Grand Street",
        "latitude": 40.711906,
        "longitude": -73.940735,
        "opened_year": 1924,
        "opened_raw": "June 30, 1924",
        "closed_year": null,
        "closed_raw": null,
        "company": "BMT",
        "services": null,
        "notes": null
      },
      {
        "station": "Montrose Avenue",
        "latitude": 40.7076,
        "longitude": -73.93990000000001,
        "opened_year": 1924,
        "opened_raw": "June 30, 1924",
        "closed_year": null,
        "closed_raw": null,
        "company": "BMT",
        "services": null,
        "notes": null
      },
      {
        "station": "Morgan Avenue",
        "latitude": 40.7063,
        "longitude": -73.932,
        "opened_year": 1928,
        "opened_raw": "July 14, 1928",
        "closed_year": null,
        "closed_raw": null,
        "company": "BMT",
        "services": null,
        "notes": null
      },
      {
        "station": "Jefferson Street",
        "latitude": 40.707,
        "longitude": -73.92360000000001,
        "opened_year": 1928,
        "opened_raw": "July 14, 1928",
        "closed_year": null,
        "closed_raw": null,
        "company": "BMT",
        "services": null,
        "notes": null
      },
      {
        "station": "DeKalb Avenue",
        "latitude": 40.704294,
        "longitude": -73.919277,
        "opened_year": 1928,
        "opened_raw": "July 14, 1928",
        "closed_year": null,
        "closed_raw": null,
        "company": "BMT",
        "services": null,
        "notes": null
      },
      {
        "station": "Myrtle\u2013Wyckoff Avenues",
        "latitude": null,
        "longitude": null,
        "opened_year": 1928,
        "opened_raw": "July 14, 1928",
        "closed_year": null,
        "closed_raw": null,
        "company": "BMT",
        "services": null,
        "notes": "M  (BMT Myrtle Avenue Line)\noriginally Myrtle Avenue"
      },
      {
        "station": "Halsey Street",
        "latitude": 40.696095,
        "longitude": -73.905029,
        "opened_year": 1928,
        "opened_raw": "July 14, 1928",
        "closed_year": null,
        "closed_raw": null,
        "company": "BMT",
        "services": null,
        "notes": null
      },
      {
        "station": "Wilson Avenue",
        "latitude": 40.6884,
        "longitude": -73.9043,
        "opened_year": 1928,
        "opened_raw": "July 14, 1928",
        "closed_year": null,
        "closed_raw": null,
        "company": "BMT",
        "services": null,
        "notes": "Station is ADA-accessible in the northbound direction only."
      },
      {
        "station": "Bushwick Avenue\u2013Aberdeen Street",
        "latitude": null,
        "longitude": null,
        "opened_year": 1928,
        "opened_raw": "July 14, 1928",
        "closed_year": null,
        "closed_raw": null,
        "company": "BMT",
        "services": null,
        "notes": null
      },
      {
        "station": "Broadway Junction",
        "latitude": 40.6789,
        "longitude": -73.90350000000001,
        "opened_year": 1928,
        "opened_raw": "July 14, 1928",
        "closed_year": null,
        "closed_raw": null,
        "company": "BMT",
        "services": null,
        "notes": "J  \u200bZ  (BMT Jamaica Line)\nA  \u200bC  (IND Fulton Street Line)"
      },
      {
        "station": "Atlantic Avenue",
        "latitude": 40.6757,
        "longitude": -73.903,
        "opened_year": 1906,
        "opened_raw": "July 28, 1906",
        "closed_year": null,
        "closed_raw": null,
        "company": "BMT",
        "services": null,
        "notes": "Connection to LIRR at East New York"
      },
      {
        "station": "Sutter Avenue",
        "latitude": 40.668400000000005,
        "longitude": -73.90180000000001,
        "opened_year": 1906,
        "opened_raw": "July 28, 1906",
        "closed_year": null,
        "closed_raw": null,
        "company": "BMT",
        "services": null,
        "notes": null
      },
      {
        "station": "Livonia Avenue",
        "latitude": 40.6637,
        "longitude": -73.90050000000001,
        "opened_year": 1906,
        "opened_raw": "July 28, 1906",
        "closed_year": null,
        "closed_raw": null,
        "company": "BMT",
        "services": null,
        "notes": "MetroCard/OMNY transfer to IRT New Lots Line (3 \u200b  4 ) at Junius Street"
      },
      {
        "station": "New Lots Avenue",
        "latitude": 40.659025,
        "longitude": -73.89936399999999,
        "opened_year": 1906,
        "opened_raw": "July 28, 1906",
        "closed_year": null,
        "closed_raw": null,
        "company": "BMT",
        "services": null,
        "notes": "originally New Lots Road\nB15 bus to JFK Airport"
      },
      {
        "station": "East 105th Street",
        "latitude": 40.6513,
        "longitude": -73.899,
        "opened_year": 1906,
        "opened_raw": "July 28, 1906",
        "closed_year": null,
        "closed_raw": null,
        "company": "BMT",
        "services": null,
        "notes": "original surface station, modified to high-level island platform c.1906"
      },
      {
        "station": "Canarsie\u2013Rockaway Parkway",
        "latitude": 40.645382,
        "longitude": -73.902626,
        "opened_year": 1906,
        "opened_raw": "July 28, 1906",
        "closed_year": null,
        "closed_raw": null,
        "company": "BMT",
        "services": null,
        "notes": "original surface station, extensively rebuilt as terminal station\nfree out-of-station transfer to B42 bus\nB82 Select Bus Service"
      },
      {
        "station": "Flatlands Avenue",
        "latitude": null,
        "longitude": null,
        "opened_year": null,
        "opened_raw": null,
        "closed_year": null,
        "closed_raw": null,
        "company": "BMT",
        "services": null,
        "notes": "line abandoned; station demolished; eventually replaced by B42 bus service"
      },
      {
        "station": "Avenue L",
        "latitude": null,
        "longitude": null,
        "opened_year": null,
        "opened_raw": null,
        "closed_year": null,
        "closed_raw": null,
        "company": "BMT",
        "services": null,
        "notes": "line abandoned; station demolished; eventually replaced by B42 bus service"
      },
      {
        "station": "Canarsie Pier",
        "latitude": null,
        "longitude": null,
        "opened_year": null,
        "opened_raw": null,
        "closed_year": null,
        "closed_raw": null,
        "company": "BMT",
        "services": null,
        "notes": "line abandoned; station demolished; eventually replaced by B42 bus service"
      }
    ]
  },
  {
    "line": "BMT_Fifth_Avenue_Line_(Brooklyn_elevated)_1",
    "company": "BMT",
    "stations": [
      {
        "station": "Fulton Street",
        "latitude": 40.688700000000004,
        "longitude": -73.9803,
        "opened_year": 1889,
        "opened_raw": "July 27, 1889",
        "closed_year": 1940,
        "closed_raw": "June 1, 1940",
        "company": "BMT",
        "services": null,
        "notes": "connection to Fulton Street elevated trains and Fulton Street Line, DeKalb Avenue Line, and Flatbush Avenue Line streetcars"
      },
      {
        "station": "Atlantic Avenue",
        "latitude": 40.6841,
        "longitude": -73.9782,
        "opened_year": 1888,
        "opened_raw": "November 5, 1888",
        "closed_year": 1940,
        "closed_raw": "June 1, 1940",
        "company": "BMT",
        "services": null,
        "notes": "connection to Long Island Rail Road Atlantic Division trains at Flatbush Avenue and St. Johns Place Line, Flatbush Avenue Line, Third Avenue Line, and Seventh Avenue Line streetcars"
      },
      {
        "station": "St. Marks Avenue",
        "latitude": 40.680844,
        "longitude": -73.977458,
        "opened_year": 1889,
        "opened_raw": "June 22, 1889",
        "closed_year": 1940,
        "closed_raw": "June 1, 1940",
        "company": "BMT",
        "services": null,
        "notes": "connection to Bergen Street Line streetcars"
      },
      {
        "station": "Union Street",
        "latitude": 40.6764,
        "longitude": -73.9805,
        "opened_year": 1889,
        "opened_raw": "June 22, 1889",
        "closed_year": 1940,
        "closed_raw": "June 1, 1940",
        "company": "BMT",
        "services": null,
        "notes": "connection to Union Street Line streetcars"
      },
      {
        "station": "Third Street",
        "latitude": 40.6728,
        "longitude": -73.9833,
        "opened_year": 1889,
        "opened_raw": "June 22, 1889",
        "closed_year": 1940,
        "closed_raw": "June 1, 1940",
        "company": "BMT",
        "services": null,
        "notes": null
      },
      {
        "station": "Ninth Street",
        "latitude": 40.669200000000004,
        "longitude": -73.9863,
        "opened_year": 1889,
        "opened_raw": "August 15, 1889",
        "closed_year": 1940,
        "closed_raw": "June 1, 1940",
        "company": "BMT",
        "services": null,
        "notes": "connection to Smith and Ninth Streets Line and Hamilton Avenue Line streetcars"
      },
      {
        "station": "16th Street",
        "latitude": 40.6649,
        "longitude": -73.9899,
        "opened_year": 1889,
        "opened_raw": "August 15, 1889",
        "closed_year": 1940,
        "closed_raw": "June 1, 1940",
        "company": "BMT",
        "services": null,
        "notes": "connection to 15th Street Line streetcars"
      },
      {
        "station": "20th Street",
        "latitude": 40.6619,
        "longitude": -73.9928,
        "opened_year": 1889,
        "opened_raw": "August 15, 1889",
        "closed_year": 1940,
        "closed_raw": "June 1, 1940",
        "company": "BMT",
        "services": null,
        "notes": null
      },
      {
        "station": "25th Street",
        "latitude": 40.6604,
        "longitude": -73.99809,
        "opened_year": 1889,
        "opened_raw": "August 15, 1889",
        "closed_year": 1940,
        "closed_raw": "June 1, 1940",
        "company": "BMT",
        "services": null,
        "notes": null
      },
      {
        "station": "36th Street",
        "latitude": 40.6544,
        "longitude": -74.00450000000001,
        "opened_year": 1890,
        "opened_raw": "May 29, 1890",
        "closed_year": 1940,
        "closed_raw": "June 1, 1940",
        "company": "BMT",
        "services": null,
        "notes": "connection to West End Line trains"
      },
      {
        "station": "40th Street",
        "latitude": 40.6531,
        "longitude": -74.0092,
        "opened_year": 1893,
        "opened_raw": "October 1, 1893",
        "closed_year": 1940,
        "closed_raw": "June 1, 1940",
        "company": "BMT",
        "services": null,
        "notes": "connection to Church Avenue Line, 39th Street and Coney Island Line, 39th Street and Manhattan Beach Line, and 39th Street and Ulmer Park Line streetcars"
      },
      {
        "station": "46th Street",
        "latitude": 40.6498,
        "longitude": -74.01270000000001,
        "opened_year": 1893,
        "opened_raw": "October 1, 1893",
        "closed_year": 1940,
        "closed_raw": "June 1, 1940",
        "company": "BMT",
        "services": null,
        "notes": null
      },
      {
        "station": "52nd Street",
        "latitude": 40.6467,
        "longitude": -74.0159,
        "opened_year": 1893,
        "opened_raw": "October 1, 1893",
        "closed_year": 1940,
        "closed_raw": "June 1, 1940",
        "company": "BMT",
        "services": null,
        "notes": null
      },
      {
        "station": "58th Street",
        "latitude": 40.6433,
        "longitude": -74.0194,
        "opened_year": 1893,
        "opened_raw": "October 1, 1893",
        "closed_year": 1940,
        "closed_raw": "June 1, 1940",
        "company": "BMT",
        "services": null,
        "notes": null
      },
      {
        "station": "65th Street",
        "latitude": 40.639236,
        "longitude": -74.023583,
        "opened_year": 1893,
        "opened_raw": "October 1, 1893",
        "closed_year": 1940,
        "closed_raw": "June 1, 1940",
        "company": "BMT",
        "services": null,
        "notes": "connection to Sea Beach Line, Bay Ridge Suburban Line, Bay Ridge Line, Third Avenue Line, and 86th Street Suburban Line streetcars"
      }
    ]
  },
  {
    "line": "BMT_Fourth_Avenue_Line_3",
    "company": "BMT",
    "stations": [
      {
        "station": "Court Street",
        "latitude": 40.690400000000004,
        "longitude": -73.99,
        "opened_year": 1920,
        "opened_raw": "August 1, 1920",
        "closed_year": null,
        "closed_raw": null,
        "company": "BMT",
        "services": "N  R  \u200bW",
        "notes": "2  \u200b3  (IRT Broadway\u2013Seventh Avenue Line at Borough Hall)\n4  \u200b5  (IRT Eastern Parkway Line at Borough Hall)"
      },
      {
        "station": "Jay Street\u2013MetroTech",
        "latitude": 40.693681,
        "longitude": -73.987233,
        "opened_year": 1924,
        "opened_raw": "June 11, 1924",
        "closed_year": null,
        "closed_raw": null,
        "company": "BMT",
        "services": "N  R  \u200bW",
        "notes": "formerly Lawrence Street\nA  \u200bC  (IND Fulton Street Line)\nF  <F> \u200b (IND Culver Line)"
      },
      {
        "station": "Myrtle Avenue",
        "latitude": 40.6937,
        "longitude": -73.9833,
        "opened_year": 1915,
        "opened_raw": "June 22, 1915",
        "closed_year": null,
        "closed_raw": null,
        "company": "BMT",
        "services": null,
        "notes": "Closed on July 16, 1956; only Manhattan-bound platform remains"
      },
      {
        "station": "DeKalb Avenue",
        "latitude": 40.690253999999996,
        "longitude": -73.982277,
        "opened_year": 1915,
        "opened_raw": "June 22, 1915",
        "closed_year": null,
        "closed_raw": null,
        "company": "BMT",
        "services": "B  \u200bD  \u200bN  \u200bQ  \u200bR  \u200bW",
        "notes": "6 tracks; tunnel tracks and one set of bridge tracks stop at station; the other set of bridge tracks bypass through the middle"
      },
      {
        "station": "Atlantic Avenue\u2013Barclays Center",
        "latitude": 40.684444,
        "longitude": -73.97833299999999,
        "opened_year": 1915,
        "opened_raw": "June 22, 1915",
        "closed_year": null,
        "closed_raw": null,
        "company": "BMT",
        "services": "D  \u200bN  \u200bR  \u200bW",
        "notes": "2  \u200b3  \u200b4  \u200b5  (IRT Eastern Parkway Line)\nB  \u200bQ  (BMT Brighton Line)\nConnection to LIRR at Atlantic Terminal; Originally named \"Pacific Street\""
      },
      {
        "station": "Union Street",
        "latitude": 40.677222,
        "longitude": -73.98305599999999,
        "opened_year": 1915,
        "opened_raw": "June 22, 1915",
        "closed_year": null,
        "closed_raw": null,
        "company": "BMT",
        "services": "D  \u200bN  \u200bR  \u200bW",
        "notes": null
      },
      {
        "station": "Ninth Street",
        "latitude": 40.669200000000004,
        "longitude": -73.9863,
        "opened_year": 1915,
        "opened_raw": "June 22, 1915",
        "closed_year": null,
        "closed_raw": null,
        "company": "BMT",
        "services": "D  \u200bN  \u200bR  \u200bW",
        "notes": "F  \u200bG  (IND Culver Line at Fourth Avenue)"
      },
      {
        "station": "Prospect Avenue",
        "latitude": 40.665278,
        "longitude": -73.993056,
        "opened_year": 1915,
        "opened_raw": "June 22, 1915",
        "closed_year": null,
        "closed_raw": null,
        "company": "BMT",
        "services": "D  \u200bN  \u200bR  \u200bW",
        "notes": null
      },
      {
        "station": "25th Street",
        "latitude": 40.6604,
        "longitude": -73.99809,
        "opened_year": 1915,
        "opened_raw": "June 22, 1915",
        "closed_year": null,
        "closed_raw": null,
        "company": "BMT",
        "services": "D  \u200bN  \u200bR  \u200bW",
        "notes": null
      },
      {
        "station": "36th Street",
        "latitude": 40.6529,
        "longitude": -74.0022,
        "opened_year": 1915,
        "opened_raw": "June 22, 1915",
        "closed_year": null,
        "closed_raw": null,
        "company": "BMT",
        "services": "D  \u200bN  \u200bR  \u200bW",
        "notes": null
      },
      {
        "station": "45th Street",
        "latitude": 40.6494,
        "longitude": -74.0094,
        "opened_year": 1915,
        "opened_raw": "September 22, 1915",
        "closed_year": null,
        "closed_raw": null,
        "company": "BMT",
        "services": "N  \u200bR  \u200bW",
        "notes": null
      },
      {
        "station": "53rd Street",
        "latitude": 40.6436,
        "longitude": -74.0155,
        "opened_year": 1915,
        "opened_raw": "September 22, 1915",
        "closed_year": null,
        "closed_raw": null,
        "company": "BMT",
        "services": "N  \u200bR  \u200bW",
        "notes": null
      },
      {
        "station": "59th Street",
        "latitude": 40.641389,
        "longitude": -74.01777799999999,
        "opened_year": 1915,
        "opened_raw": "June 22, 1915",
        "closed_year": null,
        "closed_raw": null,
        "company": "BMT",
        "services": "N  \u200bR  \u200bW",
        "notes": null
      },
      {
        "station": "Bay Ridge Avenue",
        "latitude": 40.633700000000005,
        "longitude": -74.02380000000001,
        "opened_year": 1916,
        "opened_raw": "January 15, 1916",
        "closed_year": null,
        "closed_raw": null,
        "company": "BMT",
        "services": "R",
        "notes": null
      },
      {
        "station": "77th Street",
        "latitude": 40.6285,
        "longitude": -74.02590000000001,
        "opened_year": 1916,
        "opened_raw": "January 15, 1916",
        "closed_year": null,
        "closed_raw": null,
        "company": "BMT",
        "services": "R",
        "notes": null
      },
      {
        "station": "86th Street",
        "latitude": 40.622778,
        "longitude": -74.028333,
        "opened_year": 1916,
        "opened_raw": "January 15, 1916",
        "closed_year": null,
        "closed_raw": null,
        "company": "BMT",
        "services": "R",
        "notes": null
      },
      {
        "station": "Bay Ridge\u201395th Street",
        "latitude": 40.616167,
        "longitude": -74.031222,
        "opened_year": 1925,
        "opened_raw": "October 31, 1925",
        "closed_year": null,
        "closed_raw": null,
        "company": "BMT",
        "services": "R",
        "notes": null
      }
    ]
  },
  {
    "line": "BMT_Jamaica_Line_3",
    "company": "BMT",
    "stations": [
      {
        "station": "168th Street",
        "latitude": 40.705600000000004,
        "longitude": -73.79440000000001,
        "opened_year": 1918,
        "opened_raw": "July 3, 1918",
        "closed_year": null,
        "closed_raw": null,
        "company": "BMT",
        "services": null,
        "notes": "Closed September 10, 1977, replaced by Q49 bus. Bus abandoned December 11, 1988."
      },
      {
        "station": "160th Street",
        "latitude": 40.7036,
        "longitude": -73.7992,
        "opened_year": 1918,
        "opened_raw": "July 3, 1918",
        "closed_year": null,
        "closed_raw": null,
        "company": "BMT",
        "services": null,
        "notes": "Closed September 10, 1977, replaced by Q49 bus. Bus abandoned December 11, 1988."
      },
      {
        "station": "Sutphin Boulevard",
        "latitude": 40.7057,
        "longitude": -73.8097,
        "opened_year": 1918,
        "opened_raw": "July 3, 1918",
        "closed_year": null,
        "closed_raw": null,
        "company": "BMT",
        "services": null,
        "notes": "Closed September 10, 1977, replaced by Q49 bus. Bus abandoned December 11, 1988."
      },
      {
        "station": "Queens Boulevard",
        "latitude": 40.7025,
        "longitude": -73.81450000000001,
        "opened_year": 1918,
        "opened_raw": "July 3, 1918",
        "closed_year": null,
        "closed_raw": null,
        "company": "BMT",
        "services": null,
        "notes": "Closed April 15, 1985, replaced by Q49 bus. Bus abandoned December 11, 1988."
      },
      {
        "station": "Metropolitan Avenue",
        "latitude": 40.702389,
        "longitude": -73.817222,
        "opened_year": 1918,
        "opened_raw": "July 3, 1918",
        "closed_year": null,
        "closed_raw": null,
        "company": "BMT",
        "services": null,
        "notes": "Closed April 15, 1985, replaced by Q49 bus. Bus abandoned December 11, 1988."
      },
      {
        "station": "121st Street",
        "latitude": 40.800200000000004,
        "longitude": -73.9354,
        "opened_year": 1918,
        "opened_raw": "July 3, 1918",
        "closed_year": null,
        "closed_raw": null,
        "company": "BMT",
        "services": "J  \u200bZ",
        "notes": "Q10 and Q80 buses to JFK Airport"
      },
      {
        "station": "111th Street",
        "latitude": 40.6969,
        "longitude": -73.83720000000001,
        "opened_year": 1917,
        "opened_raw": "May 28, 1917",
        "closed_year": null,
        "closed_raw": null,
        "company": "BMT",
        "services": "J",
        "notes": null
      },
      {
        "station": "104th Street",
        "latitude": 40.695184,
        "longitude": -73.843231,
        "opened_year": 1917,
        "opened_raw": "May 28, 1917",
        "closed_year": null,
        "closed_raw": null,
        "company": "BMT",
        "services": "J  \u200bZ",
        "notes": "Earlier 102nd Street"
      },
      {
        "station": "Woodhaven Boulevard",
        "latitude": 40.693622,
        "longitude": -73.852158,
        "opened_year": 1917,
        "opened_raw": "May 28, 1917",
        "closed_year": null,
        "closed_raw": null,
        "company": "BMT",
        "services": "J  \u200bZ",
        "notes": "Q52/Q53 Select Bus Service"
      },
      {
        "station": "85th Street\u2013Forest Parkway",
        "latitude": 40.692417999999996,
        "longitude": -73.86014,
        "opened_year": 1917,
        "opened_raw": "May 28, 1917",
        "closed_year": null,
        "closed_raw": null,
        "company": "BMT",
        "services": "J",
        "notes": "Earlier Forest Parkway"
      },
      {
        "station": "75th Street\u2013Elderts Lane",
        "latitude": 40.691376999999996,
        "longitude": -73.866534,
        "opened_year": 1917,
        "opened_raw": "May 28, 1917",
        "closed_year": null,
        "closed_raw": null,
        "company": "BMT",
        "services": "J  \u200bZ",
        "notes": "Earlier Elderts Lane"
      },
      {
        "station": "Cypress Hills",
        "latitude": 40.6897,
        "longitude": -73.87310000000001,
        "opened_year": 1893,
        "opened_raw": "May 30, 1893",
        "closed_year": null,
        "closed_raw": null,
        "company": "BMT",
        "services": "J",
        "notes": null
      },
      {
        "station": "Crescent Street",
        "latitude": 40.6837,
        "longitude": -73.8724,
        "opened_year": 1893,
        "opened_raw": "May 30, 1893",
        "closed_year": null,
        "closed_raw": null,
        "company": "BMT",
        "services": "J  \u200bZ",
        "notes": null
      },
      {
        "station": "Norwood Avenue",
        "latitude": 40.6816,
        "longitude": -73.8792,
        "opened_year": 1893,
        "opened_raw": "May 30, 1893",
        "closed_year": null,
        "closed_raw": null,
        "company": "BMT",
        "services": "J  \u200bZ",
        "notes": null
      },
      {
        "station": "Cleveland Street",
        "latitude": 40.6796,
        "longitude": -73.8856,
        "opened_year": 1893,
        "opened_raw": "May 30, 1893",
        "closed_year": null,
        "closed_raw": null,
        "company": "BMT",
        "services": "J",
        "notes": "Earlier Cleveland Avenue"
      },
      {
        "station": "Van Siclen Avenue",
        "latitude": 40.678002,
        "longitude": -73.89172599999999,
        "opened_year": 1885,
        "opened_raw": "December 3, 1885",
        "closed_year": null,
        "closed_raw": null,
        "company": "BMT",
        "services": "J  \u200bZ",
        "notes": null
      },
      {
        "station": "Alabama Avenue",
        "latitude": 40.67683,
        "longitude": -73.900008,
        "opened_year": 1885,
        "opened_raw": "September 5, 1885",
        "closed_year": null,
        "closed_raw": null,
        "company": "BMT",
        "services": "J  \u200bZ",
        "notes": null
      },
      {
        "station": "Broadway Junction",
        "latitude": 40.6789,
        "longitude": -73.90350000000001,
        "opened_year": 1885,
        "opened_raw": "June 14, 1885",
        "closed_year": null,
        "closed_raw": null,
        "company": "BMT",
        "services": "J  \u200bZ",
        "notes": "A  \u200bC  (IND Fulton Street Line)\nL  (BMT Canarsie Line)\nConnection to LIRR at East New York\nEarlier Manhattan Beach Crossing or Manhattan Junction or Eastern Parkway"
      },
      {
        "station": "Chauncey Street",
        "latitude": 40.6826,
        "longitude": -73.9101,
        "opened_year": 1885,
        "opened_raw": "July 18, 1885",
        "closed_year": null,
        "closed_raw": null,
        "company": "BMT",
        "services": "J  \u200bZ",
        "notes": null
      },
      {
        "station": "Halsey Street",
        "latitude": 40.685682,
        "longitude": -73.915458,
        "opened_year": 1885,
        "opened_raw": "August 19, 1885",
        "closed_year": null,
        "closed_raw": null,
        "company": "BMT",
        "services": "J",
        "notes": null
      },
      {
        "station": "Gates Avenue",
        "latitude": 40.6895,
        "longitude": -73.9221,
        "opened_year": 1885,
        "opened_raw": "May 13, 1885",
        "closed_year": null,
        "closed_raw": null,
        "company": "BMT",
        "services": "J  \u200bZ",
        "notes": null
      },
      {
        "station": "Kosciuszko Street",
        "latitude": 40.693200000000004,
        "longitude": -73.9286,
        "opened_year": 1888,
        "opened_raw": "June 25, 1888",
        "closed_year": null,
        "closed_raw": null,
        "company": "BMT",
        "services": "J",
        "notes": "B46 Select Bus Service"
      },
      {
        "station": "Myrtle Avenue",
        "latitude": 40.696943999999995,
        "longitude": -73.935278,
        "opened_year": 1888,
        "opened_raw": "June 25, 1888",
        "closed_year": null,
        "closed_raw": null,
        "company": "BMT",
        "services": "J  M  Z \u200b",
        "notes": "originally at Stuyvesant Avenue, moved for the Myrtle Avenue Elevated transfer by April 1889"
      },
      {
        "station": "Park Avenue",
        "latitude": 40.698917,
        "longitude": -73.938722,
        "opened_year": 1888,
        "opened_raw": "June 25, 1888",
        "closed_year": null,
        "closed_raw": null,
        "company": "BMT",
        "services": null,
        "notes": "Closed June 5, 1916"
      },
      {
        "station": "Flushing Avenue",
        "latitude": 40.700700000000005,
        "longitude": -73.94200000000001,
        "opened_year": 1888,
        "opened_raw": "June 25, 1888",
        "closed_year": null,
        "closed_raw": null,
        "company": "BMT",
        "services": "J  \u200bM",
        "notes": "B15 bus to JFK Int'l Airport"
      },
      {
        "station": "Lorimer Street",
        "latitude": 40.704100000000004,
        "longitude": -73.9479,
        "opened_year": 1888,
        "opened_raw": "June 25, 1888",
        "closed_year": null,
        "closed_raw": null,
        "company": "BMT",
        "services": "J  \u200bM",
        "notes": null
      },
      {
        "station": "Hewes Street",
        "latitude": 40.706700000000005,
        "longitude": -73.953,
        "opened_year": 1888,
        "opened_raw": "June 25, 1888",
        "closed_year": null,
        "closed_raw": null,
        "company": "BMT",
        "services": "J  \u200bM",
        "notes": null
      },
      {
        "station": "Marcy Avenue",
        "latitude": 40.708400000000005,
        "longitude": -73.95790000000001,
        "opened_year": 1888,
        "opened_raw": "June 25, 1888",
        "closed_year": null,
        "closed_raw": null,
        "company": "BMT",
        "services": "J  M  Z \u200b",
        "notes": "B44 SBS"
      },
      {
        "station": "Driggs Avenue",
        "latitude": 40.709900000000005,
        "longitude": -73.9623,
        "opened_year": 1888,
        "opened_raw": "June 25, 1888",
        "closed_year": null,
        "closed_raw": null,
        "company": "BMT",
        "services": null,
        "notes": "Closed July 3, 1916"
      },
      {
        "station": "Broadway Ferry",
        "latitude": 40.710781,
        "longitude": -73.968308,
        "opened_year": 1888,
        "opened_raw": "July 14, 1888",
        "closed_year": null,
        "closed_raw": null,
        "company": "BMT",
        "services": null,
        "notes": "Closed July 3, 1916"
      }
    ]
  },
  {
    "line": "BMT_Lexington_Avenue_Line_2",
    "company": "BMT",
    "stations": [
      {
        "station": "Park Row",
        "latitude": 40.712222,
        "longitude": -74.00444399999999,
        "opened_year": 1898,
        "opened_raw": "June 1898",
        "closed_year": 1944,
        "closed_raw": "March 5, 1944[citation needed]",
        "company": "BMT",
        "services": null,
        "notes": null
      },
      {
        "station": "Sands Street",
        "latitude": 40.699943,
        "longitude": -73.988345,
        "opened_year": 1888,
        "opened_raw": "September 1, 1888",
        "closed_year": 1944,
        "closed_raw": "March 5, 1944[citation needed]",
        "company": "BMT",
        "services": null,
        "notes": null
      },
      {
        "station": "Adams Street",
        "latitude": 40.693902,
        "longitude": -73.988694,
        "opened_year": 1888,
        "opened_raw": "April 10, 1888",
        "closed_year": 1944,
        "closed_raw": "March 5, 1944[citation needed]",
        "company": "BMT",
        "services": null,
        "notes": null
      },
      {
        "station": "Bridge\u2013Jay Street",
        "latitude": 40.693774,
        "longitude": -73.985191,
        "opened_year": 1888,
        "opened_raw": "April 10, 1888[citation needed]",
        "closed_year": 1969,
        "closed_raw": "October 4, 1969[citation needed]",
        "company": "BMT",
        "services": null,
        "notes": "Free transfers were offered to the IND Fulton Street Line at Jay Street \u2013 Borough Hall (present day A, \u200bC\u200b, and F and <F>\u200b trains) after 1944."
      },
      {
        "station": "Navy Street",
        "latitude": 40.693509,
        "longitude": -73.979176,
        "opened_year": 1888,
        "opened_raw": "April 10, 1888[citation needed]",
        "closed_year": 1969,
        "closed_raw": "October 4, 1969",
        "company": "BMT",
        "services": null,
        "notes": null
      },
      {
        "station": "Vanderbilt Avenue",
        "latitude": 40.693138,
        "longitude": -73.969847,
        "opened_year": 1888,
        "opened_raw": "April 10, 1888[citation needed]",
        "closed_year": 1969,
        "closed_raw": "October 4, 1969[citation needed]",
        "company": "BMT",
        "services": null,
        "notes": null
      },
      {
        "station": "Washington Avenue",
        "latitude": 40.693346999999996,
        "longitude": -73.966892,
        "opened_year": 1888,
        "opened_raw": "April 10, 1888[citation needed]",
        "closed_year": 1969,
        "closed_raw": "October 4, 1969",
        "company": "BMT",
        "services": null,
        "notes": null
      },
      {
        "station": "Myrtle Avenue",
        "latitude": 40.6937,
        "longitude": -73.96411,
        "opened_year": 1885,
        "opened_raw": "May 13, 1885",
        "closed_year": 1950,
        "closed_raw": "October 13, 1950",
        "company": "BMT",
        "services": null,
        "notes": "connection to Myrtle Avenue elevated trains and Myrtle Avenue Line streetcars"
      },
      {
        "station": "DeKalb Avenue",
        "latitude": 40.690014999999995,
        "longitude": -73.96333299999999,
        "opened_year": 1885,
        "opened_raw": "May 13, 1885",
        "closed_year": 1950,
        "closed_raw": "October 13, 1950",
        "company": "BMT",
        "services": null,
        "notes": "connection to DeKalb Avenue Line streetcars"
      },
      {
        "station": "Greene Avenue",
        "latitude": 40.687090000000005,
        "longitude": -73.962548,
        "opened_year": 1885,
        "opened_raw": "May 13, 1885",
        "closed_year": 1950,
        "closed_raw": "October 13, 1950",
        "company": "BMT",
        "services": null,
        "notes": "connection to Greene and Gates Avenues Line streetcars"
      },
      {
        "station": "Franklin Avenue",
        "latitude": 40.687,
        "longitude": -73.9568,
        "opened_year": 1885,
        "opened_raw": "May 13, 1885",
        "closed_year": 1950,
        "closed_raw": "October 13, 1950",
        "company": "BMT",
        "services": null,
        "notes": "connection to Franklin Avenue Line and Greene and Gates Avenues Line streetcars"
      },
      {
        "station": "Nostrand Avenue",
        "latitude": 40.687677,
        "longitude": -73.951038,
        "opened_year": 1885,
        "opened_raw": "May 13, 1885",
        "closed_year": 1950,
        "closed_raw": "October 13, 1950",
        "company": "BMT",
        "services": null,
        "notes": "connection to Nostrand Avenue Line and Lorimer Street Line streetcars"
      },
      {
        "station": "Tompkins Avenue",
        "latitude": 40.6884,
        "longitude": -73.9449,
        "opened_year": 1885,
        "opened_raw": "May 13, 1885",
        "closed_year": 1950,
        "closed_raw": "October 13, 1950",
        "company": "BMT",
        "services": null,
        "notes": "connection to Tompkins Avenue Line, Marcy Avenue Line, and Ocean Avenue Line streetcars"
      },
      {
        "station": "Sumner Avenue",
        "latitude": 40.689,
        "longitude": -73.9392,
        "opened_year": 1885,
        "opened_raw": "May 13, 1885",
        "closed_year": 1950,
        "closed_raw": "October 13, 1950",
        "company": "BMT",
        "services": null,
        "notes": "connection to Sumner Avenue Line streetcars"
      },
      {
        "station": "Reid Avenue",
        "latitude": 40.690055,
        "longitude": -73.93047,
        "opened_year": 1885,
        "opened_raw": "May 13, 1885",
        "closed_year": 1950,
        "closed_raw": "October 13, 1950",
        "company": "BMT",
        "services": null,
        "notes": "connection to Utica and Reid Avenues Line streetcars"
      }
    ]
  },
  {
    "line": "BMT_Myrtle_Avenue_Line_3",
    "company": "BMT",
    "stations": [
      {
        "station": "Middle Village\u2013Metropolitan Avenue",
        "latitude": 40.712232,
        "longitude": -73.889194,
        "opened_year": 1906,
        "opened_raw": "October 1, 1906",
        "closed_year": null,
        "closed_raw": null,
        "company": "BMT",
        "services": "M",
        "notes": "Service extended to pre-existing Lutheran Line station, which opened in 1881.\nCurrent station is ~100 feet west of the 1906 one."
      },
      {
        "station": "Fresh Pond Road",
        "latitude": 40.705953,
        "longitude": -73.896704,
        "opened_year": 1915,
        "opened_raw": "February 22, 1915",
        "closed_year": null,
        "closed_raw": null,
        "company": "BMT",
        "services": "M",
        "notes": null
      },
      {
        "station": "Forest Avenue",
        "latitude": 40.7046,
        "longitude": -73.902,
        "opened_year": 1915,
        "opened_raw": "February 22, 1915",
        "closed_year": null,
        "closed_raw": null,
        "company": "BMT",
        "services": "M",
        "notes": null
      },
      {
        "station": "Seneca Avenue",
        "latitude": 40.7028,
        "longitude": -73.9077,
        "opened_year": 1915,
        "opened_raw": "February 22, 1915",
        "closed_year": null,
        "closed_raw": null,
        "company": "BMT",
        "services": "M",
        "notes": null
      },
      {
        "station": "Myrtle\u2013Wyckoff Avenues",
        "latitude": 40.699511,
        "longitude": -73.911166,
        "opened_year": 1889,
        "opened_raw": "July 20, 1889",
        "closed_year": null,
        "closed_raw": null,
        "company": "BMT",
        "services": "M",
        "notes": "BMT Canarsie Line (L )\nStation rebuilt to 3 tracks July 29, 1914; center track subsequently removed."
      },
      {
        "station": "Knickerbocker Avenue",
        "latitude": 40.6987,
        "longitude": -73.9184,
        "opened_year": 1889,
        "opened_raw": "August 15, 1889",
        "closed_year": null,
        "closed_raw": null,
        "company": "BMT",
        "services": "M",
        "notes": "Station rebuilt to 3 tracks July 29, 1914; center track subsequently removed."
      },
      {
        "station": "Central Avenue",
        "latitude": 40.698,
        "longitude": -73.9252,
        "opened_year": 1889,
        "opened_raw": "July 20, 1889",
        "closed_year": null,
        "closed_raw": null,
        "company": "BMT",
        "services": "M",
        "notes": "Station rebuilt to 3 tracks July 29, 1914; center track subsequently removed."
      },
      {
        "station": "Evergreen Avenue",
        "latitude": 40.699411999999995,
        "longitude": -73.912185,
        "opened_year": 1889,
        "opened_raw": "July 20, 1889",
        "closed_year": null,
        "closed_raw": null,
        "company": "BMT",
        "services": null,
        "notes": "Closure proposed in 1915 after the New York Municipal Railway company proposed relocating stations on the Myrtle Avenue Elevated between Wyckoff Avenue and Broadway, placing the Central Avenue station's western entrances just 200 feet (61 m) east of Evergreen Avenue. It closed on May 3, 1917."
      },
      {
        "station": "Broadway",
        "latitude": 40.696943999999995,
        "longitude": -73.935278,
        "opened_year": 1889,
        "opened_raw": "April 27, 1889",
        "closed_year": null,
        "closed_raw": null,
        "company": "BMT",
        "services": null,
        "notes": "Station still in place; tracks removed; closed October 4, 1969"
      },
      {
        "station": "Sumner Avenue",
        "latitude": 40.696366,
        "longitude": -73.940686,
        "opened_year": 1889,
        "opened_raw": "April 27, 1889",
        "closed_year": null,
        "closed_raw": null,
        "company": "BMT",
        "services": null,
        "notes": "Closed October 4, 1969"
      },
      {
        "station": "Tompkins Avenue",
        "latitude": 40.695710999999996,
        "longitude": -73.946367,
        "opened_year": 1889,
        "opened_raw": "April 27, 1889",
        "closed_year": null,
        "closed_raw": null,
        "company": "BMT",
        "services": null,
        "notes": "Closed October 4, 1969"
      },
      {
        "station": "Nostrand Avenue",
        "latitude": 40.693138,
        "longitude": -73.969847,
        "opened_year": 1889,
        "opened_raw": "April 27, 1889",
        "closed_year": null,
        "closed_raw": null,
        "company": "BMT",
        "services": null,
        "notes": "Closed October 4, 1969"
      },
      {
        "station": "Franklin Avenue",
        "latitude": 40.69436,
        "longitude": -73.958001,
        "opened_year": 1889,
        "opened_raw": "April 27, 1889",
        "closed_year": null,
        "closed_raw": null,
        "company": "BMT",
        "services": null,
        "notes": "Closed October 4, 1969"
      },
      {
        "station": "Grand Avenue",
        "latitude": 40.693661,
        "longitude": -73.964061,
        "opened_year": 1889,
        "opened_raw": "April 27, 1889",
        "closed_year": null,
        "closed_raw": null,
        "company": "BMT",
        "services": null,
        "notes": "Closed January 21, 1953"
      },
      {
        "station": "Washington Avenue",
        "latitude": 40.6933,
        "longitude": -73.96690000000001,
        "opened_year": 1888,
        "opened_raw": "December 4, 1888",
        "closed_year": null,
        "closed_raw": null,
        "company": "BMT",
        "services": null,
        "notes": "Closed October 4, 1969"
      },
      {
        "station": "Vanderbilt Avenue",
        "latitude": 40.693138,
        "longitude": -73.969847,
        "opened_year": 1888,
        "opened_raw": "April 10, 1888[citation needed]",
        "closed_year": null,
        "closed_raw": null,
        "company": "BMT",
        "services": null,
        "notes": "Closed October 4, 1969"
      },
      {
        "station": "Navy Street",
        "latitude": 40.693509,
        "longitude": -73.979176,
        "opened_year": 1888,
        "opened_raw": "April 10, 1888[citation needed]",
        "closed_year": null,
        "closed_raw": null,
        "company": "BMT",
        "services": null,
        "notes": "Closed October 4, 1969"
      },
      {
        "station": "Bridge\u2013Jay Streets",
        "latitude": 40.693774,
        "longitude": -73.985191,
        "opened_year": 1888,
        "opened_raw": "April 10, 1888[citation needed]",
        "closed_year": null,
        "closed_raw": null,
        "company": "BMT",
        "services": null,
        "notes": "Earlier known as Bridge Street. Closed October 4, 1969"
      },
      {
        "station": "Adams Street",
        "latitude": 40.693902,
        "longitude": -73.988694,
        "opened_year": 1888,
        "opened_raw": "April 10, 1888",
        "closed_year": null,
        "closed_raw": null,
        "company": "BMT",
        "services": null,
        "notes": "Closed March 5, 1944"
      },
      {
        "station": "Sands Street",
        "latitude": 40.699943,
        "longitude": -73.988345,
        "opened_year": 1888,
        "opened_raw": "September 1, 1888",
        "closed_year": null,
        "closed_raw": null,
        "company": "BMT",
        "services": null,
        "notes": "Closed March 5, 1944"
      },
      {
        "station": "Park Row",
        "latitude": 40.7122,
        "longitude": -74.0044,
        "opened_year": 1898,
        "opened_raw": "June 18, 1898",
        "closed_year": null,
        "closed_raw": null,
        "company": "BMT",
        "services": null,
        "notes": "Closed March 5, 1944"
      }
    ]
  },
  {
    "line": "BMT_Nassau_Street_Line_3",
    "company": "BMT",
    "stations": [
      {
        "station": "Essex Street",
        "latitude": 40.7184,
        "longitude": -73.98743,
        "opened_year": 1908,
        "opened_raw": "September 16, 1908",
        "closed_year": null,
        "closed_raw": null,
        "company": "BMT",
        "services": "J  M  Z \u200b",
        "notes": "IND Sixth Avenue Line (F  <F> \u200b) at Delancey Street"
      },
      {
        "station": "Bowery",
        "latitude": 40.7203,
        "longitude": -73.9941,
        "opened_year": 1913,
        "opened_raw": "August 4, 1913",
        "closed_year": null,
        "closed_raw": null,
        "company": "BMT",
        "services": "J  \u200bZ",
        "notes": null
      },
      {
        "station": "Canal Street",
        "latitude": 40.718056,
        "longitude": -74.0,
        "opened_year": 1913,
        "opened_raw": "August 4, 1913",
        "closed_year": null,
        "closed_raw": null,
        "company": "BMT",
        "services": "J  \u200bZ",
        "notes": "BMT Broadway Line (N  \u200bQ  \u200bR  \u200bW )\nIRT Lexington Avenue Line (4  \u200b6  <6> )"
      },
      {
        "station": "Chambers Street",
        "latitude": 40.713037,
        "longitude": -74.003858,
        "opened_year": 1913,
        "opened_raw": "August 4, 1913",
        "closed_year": null,
        "closed_raw": null,
        "company": "BMT",
        "services": "J  \u200bZ",
        "notes": "IRT Lexington Avenue Line (4  \u200b5  \u200b6  <6> ) at Brooklyn Bridge\u2013City Hall"
      },
      {
        "station": "Fulton Street",
        "latitude": 40.7078,
        "longitude": -74.0044,
        "opened_year": 1931,
        "opened_raw": "May 29, 1931",
        "closed_year": null,
        "closed_raw": null,
        "company": "BMT",
        "services": "J  \u200bZ",
        "notes": "IRT Broadway\u2013Seventh Avenue Line (2  \u200b3 )\nIRT Lexington Avenue Line (4  \u200b5 )\nIND Eighth Avenue Line (A  \u200bC )\nConnection to BMT Broadway Line (N  \u200bR  \u200bW ) at Cortlandt Street via Dey Street Passageway\nConnection to PATH at World Trade Center"
      },
      {
        "station": "Broad Street",
        "latitude": 40.706944,
        "longitude": -74.01083299999999,
        "opened_year": 1931,
        "opened_raw": "May 29, 1931",
        "closed_year": null,
        "closed_raw": null,
        "company": "BMT",
        "services": "J  \u200bZ",
        "notes": null
      }
    ]
  },
  {
    "line": "BMT_West_End_Line_3",
    "company": "BMT",
    "stations": [
      {
        "station": "Ninth Avenue",
        "latitude": 40.6466,
        "longitude": -73.99470000000001,
        "opened_year": 1916,
        "opened_raw": "June 24, 1916",
        "closed_year": null,
        "closed_raw": null,
        "company": "BMT",
        "services": "D  \u200bR  \u200bW",
        "notes": "former transfer to BMT Culver Line"
      },
      {
        "station": "Fort Hamilton Parkway",
        "latitude": 40.6407,
        "longitude": -73.9944,
        "opened_year": 1916,
        "opened_raw": "June 24, 1916",
        "closed_year": null,
        "closed_raw": null,
        "company": "BMT",
        "services": "D",
        "notes": null
      },
      {
        "station": "50th Street",
        "latitude": 40.6361,
        "longitude": -73.995,
        "opened_year": 1916,
        "opened_raw": "June 24, 1916",
        "closed_year": null,
        "closed_raw": null,
        "company": "BMT",
        "services": "D",
        "notes": null
      },
      {
        "station": "55th Street",
        "latitude": 40.631530000000005,
        "longitude": -73.99545,
        "opened_year": 1916,
        "opened_raw": "June 24, 1916",
        "closed_year": null,
        "closed_raw": null,
        "company": "BMT",
        "services": "D",
        "notes": null
      },
      {
        "station": "62nd Street",
        "latitude": 40.62648,
        "longitude": -73.99689000000001,
        "opened_year": 1916,
        "opened_raw": "June 24, 1916",
        "closed_year": null,
        "closed_raw": null,
        "company": "BMT",
        "services": "D  \u200bR  \u200bW",
        "notes": "BMT Sea Beach Line (N  \u200bW ) at New Utrecht Avenue"
      },
      {
        "station": "71st Street",
        "latitude": 40.6192,
        "longitude": -73.999,
        "opened_year": 1916,
        "opened_raw": "June 24, 1916",
        "closed_year": null,
        "closed_raw": null,
        "company": "BMT",
        "services": "D",
        "notes": null
      },
      {
        "station": "79th Street",
        "latitude": 40.6134,
        "longitude": -74.00150000000001,
        "opened_year": 1916,
        "opened_raw": "June 24, 1916",
        "closed_year": null,
        "closed_raw": null,
        "company": "BMT",
        "services": "D",
        "notes": null
      },
      {
        "station": "18th Avenue",
        "latitude": 40.6087,
        "longitude": -74.0021,
        "opened_year": 1916,
        "opened_raw": "June 24, 1916",
        "closed_year": null,
        "closed_raw": null,
        "company": "BMT",
        "services": "D",
        "notes": null
      },
      {
        "station": "20th Avenue",
        "latitude": 40.6047,
        "longitude": -73.9985,
        "opened_year": 1916,
        "opened_raw": "July 29, 1916",
        "closed_year": null,
        "closed_raw": null,
        "company": "BMT",
        "services": "D",
        "notes": null
      },
      {
        "station": "Bay Parkway",
        "latitude": 40.602655,
        "longitude": -73.994293,
        "opened_year": 1916,
        "opened_raw": "July 29, 1916",
        "closed_year": null,
        "closed_raw": null,
        "company": "BMT",
        "services": "D  \u200bR  \u200bW",
        "notes": "B82 Select Bus Service"
      },
      {
        "station": "25th Avenue",
        "latitude": 40.5977,
        "longitude": -73.98679,
        "opened_year": 1916,
        "opened_raw": "July 29, 1916",
        "closed_year": null,
        "closed_raw": null,
        "company": "BMT",
        "services": "D",
        "notes": null
      },
      {
        "station": "Bay 50th Street",
        "latitude": 40.5893,
        "longitude": -73.9841,
        "opened_year": 1917,
        "opened_raw": "July 21, 1917",
        "closed_year": null,
        "closed_raw": null,
        "company": "BMT",
        "services": "D",
        "notes": null
      },
      {
        "station": "Coney Island\u2013Stillwell Avenue",
        "latitude": 40.577222,
        "longitude": -73.981111,
        "opened_year": 1917,
        "opened_raw": "July 21, 1917",
        "closed_year": null,
        "closed_raw": null,
        "company": "BMT",
        "services": "D",
        "notes": "BMT Brighton Line (Q )\nIND Culver Line (F  <F> \u200b)\nBMT Sea Beach Line (N )"
      }
    ]
  },
  {
    "line": "IND_Concourse_Line_3",
    "company": "IND",
    "stations": [
      {
        "station": "Norwood\u2013205th Street",
        "latitude": 40.874908,
        "longitude": -73.879452,
        "opened_year": 1933,
        "opened_raw": "July 1, 1933",
        "closed_year": null,
        "closed_raw": null,
        "company": "IND",
        "services": "D",
        "notes": null
      },
      {
        "station": "Bedford Park Boulevard",
        "latitude": 40.8725,
        "longitude": -73.8879,
        "opened_year": 1933,
        "opened_raw": "July 1, 1933",
        "closed_year": null,
        "closed_raw": null,
        "company": "IND",
        "services": "B  \u200bD",
        "notes": "Northern terminal of B trains during all weekday rush hours and select weekday middays."
      },
      {
        "station": "Kingsbridge Road",
        "latitude": 40.867778,
        "longitude": -73.897222,
        "opened_year": 1933,
        "opened_raw": "July 1, 1933",
        "closed_year": null,
        "closed_raw": null,
        "company": "IND",
        "services": "B  \u200bD",
        "notes": null
      },
      {
        "station": "Fordham Road",
        "latitude": 40.8624,
        "longitude": -73.89710000000001,
        "opened_year": 1933,
        "opened_raw": "July 1, 1933",
        "closed_year": null,
        "closed_raw": null,
        "company": "IND",
        "services": "B  \u200bD",
        "notes": "Bx12 Select Bus Service\nConnection to Metro-North Railroad (Harlem and New Haven Lines at Fordham)"
      },
      {
        "station": "182nd\u2013183rd Streets",
        "latitude": 40.856766,
        "longitude": -73.900309,
        "opened_year": 1933,
        "opened_raw": "July 1, 1933",
        "closed_year": null,
        "closed_raw": null,
        "company": "IND",
        "services": "B  \u200bD",
        "notes": null
      },
      {
        "station": "Tremont Avenue",
        "latitude": 40.8495,
        "longitude": -73.906,
        "opened_year": 1933,
        "opened_raw": "July 1, 1933",
        "closed_year": null,
        "closed_raw": null,
        "company": "IND",
        "services": "B  \u200bD",
        "notes": null
      },
      {
        "station": "174th\u2013175th Streets",
        "latitude": 40.845892,
        "longitude": -73.910179,
        "opened_year": 1933,
        "opened_raw": "July 1, 1933",
        "closed_year": null,
        "closed_raw": null,
        "company": "IND",
        "services": "B  \u200bD",
        "notes": null
      },
      {
        "station": "170th Street",
        "latitude": 40.8388,
        "longitude": -73.9137,
        "opened_year": 1933,
        "opened_raw": "July 1, 1933",
        "closed_year": null,
        "closed_raw": null,
        "company": "IND",
        "services": "B  \u200bD",
        "notes": null
      },
      {
        "station": "167th Street",
        "latitude": 40.8357,
        "longitude": -73.9213,
        "opened_year": 1933,
        "opened_raw": "July 1, 1933",
        "closed_year": null,
        "closed_raw": null,
        "company": "IND",
        "services": "B  \u200bD",
        "notes": null
      },
      {
        "station": "161st Street\u2013Yankee Stadium",
        "latitude": 40.827937,
        "longitude": -73.92588599999999,
        "opened_year": 1933,
        "opened_raw": "July 1, 1933",
        "closed_year": null,
        "closed_raw": null,
        "company": "IND",
        "services": "B  \u200bD",
        "notes": "Bx6 Select Bus Service\nIRT Jerome Avenue Line (4 )\nConnection to Metro-North Railroad (Hudson Line at Yankees\u2013East 153rd Street)"
      },
      {
        "station": "155th Street",
        "latitude": 40.8299,
        "longitude": -73.93910000000001,
        "opened_year": 1933,
        "opened_raw": "July 1, 1933",
        "closed_year": null,
        "closed_raw": null,
        "company": "IND",
        "services": "B  \u200bD",
        "notes": null
      },
      {
        "station": "145th Street",
        "latitude": 40.826389,
        "longitude": -73.950278,
        "opened_year": 1932,
        "opened_raw": "September 10, 1932",
        "closed_year": null,
        "closed_raw": null,
        "company": "IND",
        "services": "B  \u200bD",
        "notes": "IND Eighth Avenue Line (A  \u200bC )\nNorthern terminal of B trains during select weekday middays and all weekday evenings."
      }
    ]
  },
  {
    "line": "IND_Crosstown_Line_3",
    "company": "IND",
    "stations": [
      {
        "station": "Court Square",
        "latitude": 40.747,
        "longitude": -73.9453,
        "opened_year": 1933,
        "opened_raw": "August 19, 1933",
        "closed_year": null,
        "closed_raw": null,
        "company": "IND",
        "services": "G",
        "notes": "IRT Flushing Line (7  <7> \u200b)\nIND Queens Boulevard Line (E  \u200bF  <F> )"
      },
      {
        "station": "21st Street",
        "latitude": 40.744600000000005,
        "longitude": -73.9487,
        "opened_year": 1933,
        "opened_raw": "August 19, 1933",
        "closed_year": null,
        "closed_raw": null,
        "company": "IND",
        "services": "G",
        "notes": "Connection to LIRR at Hunterspoint Avenue"
      },
      {
        "station": "Greenpoint Avenue",
        "latitude": 40.7302,
        "longitude": -73.9543,
        "opened_year": 1933,
        "opened_raw": "August 19, 1933",
        "closed_year": null,
        "closed_raw": null,
        "company": "IND",
        "services": "G",
        "notes": null
      },
      {
        "station": "Nassau Avenue",
        "latitude": 40.723800000000004,
        "longitude": -73.9508,
        "opened_year": 1933,
        "opened_raw": "August 19, 1933",
        "closed_year": null,
        "closed_raw": null,
        "company": "IND",
        "services": "G",
        "notes": null
      },
      {
        "station": "Metropolitan Avenue",
        "latitude": 40.712751999999995,
        "longitude": -73.951464,
        "opened_year": 1937,
        "opened_raw": "July 1, 1937",
        "closed_year": null,
        "closed_raw": null,
        "company": "IND",
        "services": "G",
        "notes": "BMT Canarsie Line (L ) at Lorimer Street"
      },
      {
        "station": "Broadway",
        "latitude": 40.705400000000004,
        "longitude": -73.95020000000001,
        "opened_year": 1937,
        "opened_raw": "July 1, 1937",
        "closed_year": null,
        "closed_raw": null,
        "company": "IND",
        "services": "G",
        "notes": null
      },
      {
        "station": "Flushing Avenue",
        "latitude": 40.699739,
        "longitude": -73.950176,
        "opened_year": 1937,
        "opened_raw": "July 1, 1937",
        "closed_year": null,
        "closed_raw": null,
        "company": "IND",
        "services": "G",
        "notes": null
      },
      {
        "station": "Myrtle\u2013Willoughby Avenues",
        "latitude": 40.694631,
        "longitude": -73.949103,
        "opened_year": 1937,
        "opened_raw": "July 1, 1937",
        "closed_year": null,
        "closed_raw": null,
        "company": "IND",
        "services": "G",
        "notes": null
      },
      {
        "station": "Bedford\u2013Nostrand Avenues",
        "latitude": 40.689586999999996,
        "longitude": -73.95356699999999,
        "opened_year": 1937,
        "opened_raw": "July 1, 1937",
        "closed_year": null,
        "closed_raw": null,
        "company": "IND",
        "services": "G",
        "notes": "Center track between the two island platforms"
      },
      {
        "station": "Classon Avenue",
        "latitude": 40.6888,
        "longitude": -73.96000000000001,
        "opened_year": 1937,
        "opened_raw": "July 1, 1937",
        "closed_year": null,
        "closed_raw": null,
        "company": "IND",
        "services": "G",
        "notes": "Additional space for a center track"
      },
      {
        "station": "Clinton\u2013Washington Avenues",
        "latitude": 40.688058,
        "longitude": -73.96687,
        "opened_year": 1937,
        "opened_raw": "July 1, 1937",
        "closed_year": null,
        "closed_raw": null,
        "company": "IND",
        "services": "G",
        "notes": null
      },
      {
        "station": "Fulton Street",
        "latitude": 40.7078,
        "longitude": -74.0044,
        "opened_year": 1937,
        "opened_raw": "July 1, 1937",
        "closed_year": null,
        "closed_raw": null,
        "company": "IND",
        "services": "G",
        "notes": null
      },
      {
        "station": "Hoyt\u2013Schermerhorn Streets",
        "latitude": 40.689022,
        "longitude": -73.986142,
        "opened_year": 1937,
        "opened_raw": "July 1, 1937",
        "closed_year": null,
        "closed_raw": null,
        "company": "IND",
        "services": "G",
        "notes": "IND Fulton Street Line (A  \u200bC )"
      }
    ]
  },
  {
    "line": "IND_Culver_Line_3",
    "company": "IND",
    "stations": [
      {
        "station": "Jay Street\u2013MetroTech",
        "latitude": 40.693681,
        "longitude": -73.987233,
        "opened_year": 1933,
        "opened_raw": "February 1, 1933",
        "closed_year": null,
        "closed_raw": null,
        "company": "IND",
        "services": "F  <F> \u200b",
        "notes": "IND Fulton Street Line (A  \u200bC )\nBMT Fourth Avenue Line (N  R  \u200bW )"
      },
      {
        "station": "Bergen Street",
        "latitude": 40.687253,
        "longitude": -73.990006,
        "opened_year": 1933,
        "opened_raw": "March 20, 1933",
        "closed_year": null,
        "closed_raw": null,
        "company": "IND",
        "services": "F  \u200bG",
        "notes": "upper level: Local (in service)\nlower level: Express (no regular service)"
      },
      {
        "station": "Carroll Street",
        "latitude": 40.6802,
        "longitude": -73.9948,
        "opened_year": 1933,
        "opened_raw": "October 7, 1933",
        "closed_year": null,
        "closed_raw": null,
        "company": "IND",
        "services": "F  \u200bG",
        "notes": null
      },
      {
        "station": "Smith\u2013Ninth Streets",
        "latitude": 40.674444,
        "longitude": -73.997222,
        "opened_year": 1933,
        "opened_raw": "October 7, 1933",
        "closed_year": null,
        "closed_raw": null,
        "company": "IND",
        "services": "F  \u200bG",
        "notes": null
      },
      {
        "station": "Fourth Avenue",
        "latitude": 40.670277999999996,
        "longitude": -73.989722,
        "opened_year": 1933,
        "opened_raw": "October 7, 1933",
        "closed_year": null,
        "closed_raw": null,
        "company": "IND",
        "services": "F  \u200bG",
        "notes": "BMT Fourth Avenue Line (D  \u200bN  \u200bR  \u200bW ) at Ninth Street"
      },
      {
        "station": "Seventh Avenue",
        "latitude": 40.6668,
        "longitude": -73.9816,
        "opened_year": 1933,
        "opened_raw": "October 7, 1933",
        "closed_year": null,
        "closed_raw": null,
        "company": "IND",
        "services": "F  <F>  \u200bG",
        "notes": null
      },
      {
        "station": "15th Street\u2013Prospect Park",
        "latitude": 40.660556,
        "longitude": -73.97916699999999,
        "opened_year": 1933,
        "opened_raw": "October 7, 1933",
        "closed_year": null,
        "closed_raw": null,
        "company": "IND",
        "services": "F  \u200bG",
        "notes": null
      },
      {
        "station": "Fort Hamilton Parkway",
        "latitude": 40.644118999999996,
        "longitude": -73.989047,
        "opened_year": 1933,
        "opened_raw": "October 7, 1933",
        "closed_year": null,
        "closed_raw": null,
        "company": "IND",
        "services": "F  \u200bG",
        "notes": null
      },
      {
        "station": "Church Avenue",
        "latitude": 40.642778,
        "longitude": -73.979444,
        "opened_year": 1933,
        "opened_raw": "October 7, 1933",
        "closed_year": null,
        "closed_raw": null,
        "company": "IND",
        "services": "F  <F>  \u200bG",
        "notes": "southern terminal of G  train"
      },
      {
        "station": "Ninth Avenue",
        "latitude": 40.646575,
        "longitude": -73.994674,
        "opened_year": 1919,
        "opened_raw": "March 16, 1919",
        "closed_year": null,
        "closed_raw": null,
        "company": "IND",
        "services": "Culver Shuttle",
        "notes": "Stopped on lower level, which closed on May 11, 1975. Transfer was available to the BMT West End Line."
      },
      {
        "station": "Fort Hamilton Parkway",
        "latitude": 40.644118999999996,
        "longitude": -73.989047,
        "opened_year": 1919,
        "opened_raw": "March 16, 1919",
        "closed_year": null,
        "closed_raw": null,
        "company": "IND",
        "services": "Culver Shuttle",
        "notes": "Closed on May 11, 1975, and demolished in 1985."
      },
      {
        "station": "13th Avenue",
        "latitude": 40.6413,
        "longitude": -73.9845,
        "opened_year": 1919,
        "opened_raw": "March 16, 1919",
        "closed_year": null,
        "closed_raw": null,
        "company": "IND",
        "services": "Culver Shuttle",
        "notes": "Closed on May 11, 1975, and demolished in 1985."
      },
      {
        "station": "Ditmas Avenue",
        "latitude": 40.6363,
        "longitude": -73.9782,
        "opened_year": 1919,
        "opened_raw": "March 16, 1919",
        "closed_year": null,
        "closed_raw": null,
        "company": "IND",
        "services": "F  <F> \u200b",
        "notes": "Former terminal for the Culver Shuttle, side platform closed on May 11, 1975."
      },
      {
        "station": "18th Avenue",
        "latitude": 40.6296,
        "longitude": -73.977,
        "opened_year": 1919,
        "opened_raw": "March 16, 1919",
        "closed_year": null,
        "closed_raw": null,
        "company": "IND",
        "services": "F  <F> \u200b",
        "notes": null
      },
      {
        "station": "Avenue I",
        "latitude": 40.6259,
        "longitude": -73.9762,
        "opened_year": 1919,
        "opened_raw": "March 16, 1919",
        "closed_year": null,
        "closed_raw": null,
        "company": "IND",
        "services": "F  <F> \u200b",
        "notes": null
      },
      {
        "station": "Bay Parkway",
        "latitude": 40.6209,
        "longitude": -73.9752,
        "opened_year": 1919,
        "opened_raw": "March 16, 1919",
        "closed_year": null,
        "closed_raw": null,
        "company": "IND",
        "services": "F  <F> \u200b",
        "notes": null
      },
      {
        "station": "Avenue N",
        "latitude": 40.615,
        "longitude": -73.97420000000001,
        "opened_year": 1919,
        "opened_raw": "March 16, 1919",
        "closed_year": null,
        "closed_raw": null,
        "company": "IND",
        "services": "F  <F> \u200b",
        "notes": null
      },
      {
        "station": "Avenue P",
        "latitude": 40.6087,
        "longitude": -73.973,
        "opened_year": 1919,
        "opened_raw": "March 16, 1919",
        "closed_year": null,
        "closed_raw": null,
        "company": "IND",
        "services": "F  <F> \u200b",
        "notes": null
      },
      {
        "station": "Kings Highway",
        "latitude": 40.6032,
        "longitude": -73.9723,
        "opened_year": 1919,
        "opened_raw": "March 16, 1919",
        "closed_year": null,
        "closed_raw": null,
        "company": "IND",
        "services": "F  <F> \u200b",
        "notes": "B82 Select Bus Service\nsouthern terminal of several F trains during rush hours"
      },
      {
        "station": "Avenue U",
        "latitude": 40.59615,
        "longitude": -73.973319,
        "opened_year": 1919,
        "opened_raw": "May 10, 1919",
        "closed_year": null,
        "closed_raw": null,
        "company": "IND",
        "services": "F  <F> \u200b",
        "notes": null
      },
      {
        "station": "Avenue X",
        "latitude": 40.5901,
        "longitude": -73.9741,
        "opened_year": 1919,
        "opened_raw": "May 10, 1919",
        "closed_year": null,
        "closed_raw": null,
        "company": "IND",
        "services": "F  <F> \u200b",
        "notes": null
      },
      {
        "station": "Neptune Avenue",
        "latitude": 40.580400000000004,
        "longitude": -73.97460000000001,
        "opened_year": 1920,
        "opened_raw": "May 1, 1920",
        "closed_year": null,
        "closed_raw": null,
        "company": "IND",
        "services": "F  <F> \u200b",
        "notes": null
      },
      {
        "station": "West Eighth Street\u2013New York Aquarium",
        "latitude": 40.576178,
        "longitude": -73.9758,
        "opened_year": 1920,
        "opened_raw": "May 1, 1920",
        "closed_year": null,
        "closed_raw": null,
        "company": "IND",
        "services": "F  <F> \u200b",
        "notes": "BMT Brighton Line (Q )"
      },
      {
        "station": "Coney Island\u2013Stillwell Avenue",
        "latitude": 40.577222,
        "longitude": -73.981111,
        "opened_year": 1920,
        "opened_raw": "May 1, 1920",
        "closed_year": null,
        "closed_raw": null,
        "company": "IND",
        "services": "F  <F> \u200b",
        "notes": "BMT Brighton Line (Q )\nBMT Sea Beach Line (N )\nBMT West End Line (D )"
      }
    ]
  },
  {
    "line": "IND_Eighth_Avenue_Line_3",
    "company": "IND",
    "stations": [
      {
        "station": "Inwood\u2013207th Street",
        "latitude": 40.867672,
        "longitude": -73.921165,
        "opened_year": 1932,
        "opened_raw": "September 10, 1932",
        "closed_year": null,
        "closed_raw": null,
        "company": "IND",
        "services": "A",
        "notes": "Bx12 Select Bus Service"
      },
      {
        "station": "Dyckman Street",
        "latitude": 40.861388999999996,
        "longitude": -73.924722,
        "opened_year": 1932,
        "opened_raw": "September 10, 1932",
        "closed_year": null,
        "closed_raw": null,
        "company": "IND",
        "services": "A",
        "notes": null
      },
      {
        "station": "190th Street",
        "latitude": 40.858972,
        "longitude": -73.934028,
        "opened_year": 1932,
        "opened_raw": "September 10, 1932",
        "closed_year": null,
        "closed_raw": null,
        "company": "IND",
        "services": "A",
        "notes": null
      },
      {
        "station": "181st Street",
        "latitude": 40.850891,
        "longitude": -73.938289,
        "opened_year": 1932,
        "opened_raw": "September 10, 1932",
        "closed_year": null,
        "closed_raw": null,
        "company": "IND",
        "services": "A",
        "notes": null
      },
      {
        "station": "175th Street",
        "latitude": 40.8465,
        "longitude": -73.9401,
        "opened_year": 1932,
        "opened_raw": "September 10, 1932",
        "closed_year": null,
        "closed_raw": null,
        "company": "IND",
        "services": "A",
        "notes": "George Washington Bridge Bus Station"
      },
      {
        "station": "168th Street",
        "latitude": 40.841021999999995,
        "longitude": -73.939791,
        "opened_year": 1932,
        "opened_raw": "September 10, 1932",
        "closed_year": null,
        "closed_raw": null,
        "company": "IND",
        "services": "A  \u200bC",
        "notes": "IRT Broadway\u2013Seventh Avenue Line (1 )"
      },
      {
        "station": "163rd Street\u2013Amsterdam Avenue",
        "latitude": 40.836866,
        "longitude": -73.940134,
        "opened_year": 1932,
        "opened_raw": "September 10, 1932",
        "closed_year": null,
        "closed_raw": null,
        "company": "IND",
        "services": "A  \u200bC",
        "notes": null
      },
      {
        "station": "155th Street",
        "latitude": 40.8299,
        "longitude": -73.93910000000001,
        "opened_year": 1932,
        "opened_raw": "September 10, 1932",
        "closed_year": null,
        "closed_raw": null,
        "company": "IND",
        "services": "A  \u200bC",
        "notes": "Bx6 Select Bus Service"
      },
      {
        "station": "145th Street",
        "latitude": 40.824040000000004,
        "longitude": -73.944769,
        "opened_year": 1932,
        "opened_raw": "September 10, 1932",
        "closed_year": null,
        "closed_raw": null,
        "company": "IND",
        "services": "A  \u200bC",
        "notes": "IND Concourse Line (B  \u200bD )"
      },
      {
        "station": "135th Street",
        "latitude": 40.8171,
        "longitude": -73.94800000000001,
        "opened_year": 1932,
        "opened_raw": "September 10, 1932",
        "closed_year": null,
        "closed_raw": null,
        "company": "IND",
        "services": "A  \u200bB  \u200bC",
        "notes": null
      },
      {
        "station": "125th Street",
        "latitude": 40.8108,
        "longitude": -73.95270000000001,
        "opened_year": 1932,
        "opened_raw": "September 10, 1932",
        "closed_year": null,
        "closed_raw": null,
        "company": "IND",
        "services": "A  \u200bB  \u200bC  \u200bD",
        "notes": "M60 Select Bus Service to LaGuardia Airport"
      },
      {
        "station": "116th Street",
        "latitude": 40.804389,
        "longitude": -73.955412,
        "opened_year": 1932,
        "opened_raw": "September 10, 1932",
        "closed_year": null,
        "closed_raw": null,
        "company": "IND",
        "services": "A  \u200bB  \u200bC",
        "notes": null
      },
      {
        "station": "Cathedral Parkway\u2013110th Street",
        "latitude": 40.800523999999996,
        "longitude": -73.958244,
        "opened_year": 1932,
        "opened_raw": "September 10, 1932",
        "closed_year": null,
        "closed_raw": null,
        "company": "IND",
        "services": "A  \u200bB  \u200bC",
        "notes": null
      },
      {
        "station": "103rd Street",
        "latitude": 40.796,
        "longitude": -73.9614,
        "opened_year": 1932,
        "opened_raw": "September 10, 1932",
        "closed_year": null,
        "closed_raw": null,
        "company": "IND",
        "services": "A  \u200bB  \u200bC",
        "notes": null
      },
      {
        "station": "96th Street",
        "latitude": 40.791622,
        "longitude": -73.964725,
        "opened_year": 1932,
        "opened_raw": "September 10, 1932",
        "closed_year": null,
        "closed_raw": null,
        "company": "IND",
        "services": "A  \u200bB  \u200bC",
        "notes": null
      },
      {
        "station": "86th Street",
        "latitude": 40.785286,
        "longitude": -73.96931599999999,
        "opened_year": 1932,
        "opened_raw": "September 10, 1932",
        "closed_year": null,
        "closed_raw": null,
        "company": "IND",
        "services": "A  \u200bB  \u200bC",
        "notes": "M86 Select Bus Service"
      },
      {
        "station": "81st Street\u2013Museum of Natural History",
        "latitude": 40.781971,
        "longitude": -73.971763,
        "opened_year": 1932,
        "opened_raw": "September 10, 1932",
        "closed_year": null,
        "closed_raw": null,
        "company": "IND",
        "services": "A  \u200bB  \u200bC",
        "notes": "M79 Select Bus Service"
      },
      {
        "station": "72nd Street",
        "latitude": 40.776154,
        "longitude": -73.976011,
        "opened_year": 1932,
        "opened_raw": "September 10, 1932",
        "closed_year": null,
        "closed_raw": null,
        "company": "IND",
        "services": "A  \u200bB  \u200bC",
        "notes": null
      },
      {
        "station": "59th Street\u2013Columbus Circle",
        "latitude": 40.768056,
        "longitude": -73.981944,
        "opened_year": 1932,
        "opened_raw": "September 10, 1932",
        "closed_year": null,
        "closed_raw": null,
        "company": "IND",
        "services": "A  \u200bB  \u200bC  \u200bD",
        "notes": "IRT Broadway\u2013Seventh Avenue Line (1  \u200b2 )"
      },
      {
        "station": "50th Street",
        "latitude": 40.762276,
        "longitude": -73.986139,
        "opened_year": 1932,
        "opened_raw": "September 10, 1932",
        "closed_year": null,
        "closed_raw": null,
        "company": "IND",
        "services": "A  \u200bC",
        "notes": "IND Queens Boulevard Line (E )\nStation is ADA-accessible in the southbound direction only."
      },
      {
        "station": "42nd Street\u2013Port Authority Bus Terminal",
        "latitude": 40.757208802332,
        "longitude": -73.9894026666456,
        "opened_year": 1932,
        "opened_raw": "September 10, 1932",
        "closed_year": null,
        "closed_raw": null,
        "company": "IND",
        "services": "A  \u200bC  \u200bE",
        "notes": "IRT Broadway\u2013Seventh Avenue Line (1  \u200b2  \u200b3 )\nIRT Flushing Line (7  <7> \u200b)\nIRT 42nd Street Shuttle (S )\nBMT Broadway Line (N  \u200bQ  \u200bR  \u200bW ) at Times Square\u201342nd Street\nIND Sixth Avenue Line (B  \u200bD  \u200bF  <F>  \u200bM ) at 42nd Street\u2013Bryant Park, daytime only\nPort Authority Bus Terminal\nM34A Select Bus Service"
      },
      {
        "station": "34th Street\u2013Penn Station",
        "latitude": 40.752165999999995,
        "longitude": -73.993521,
        "opened_year": 1932,
        "opened_raw": "September 10, 1932",
        "closed_year": null,
        "closed_raw": null,
        "company": "IND",
        "services": "A  \u200bC  \u200bE",
        "notes": "Penn Station: Amtrak, Long Island Rail Road, and New Jersey Transit\nM34/M34A Select Bus Service"
      },
      {
        "station": "23rd Street",
        "latitude": 40.745273999999995,
        "longitude": -73.998499,
        "opened_year": 1932,
        "opened_raw": "September 10, 1932",
        "closed_year": null,
        "closed_raw": null,
        "company": "IND",
        "services": "A  \u200bC  \u200bE",
        "notes": "M23 Select Bus Service"
      },
      {
        "station": "14th Street",
        "latitude": 40.739779,
        "longitude": -74.002533,
        "opened_year": 1932,
        "opened_raw": "September 10, 1932",
        "closed_year": null,
        "closed_raw": null,
        "company": "IND",
        "services": "A  \u200bC  \u200bE",
        "notes": "BMT Canarsie Line (L ) at Eighth Avenue"
      },
      {
        "station": "West Fourth Street\u2013Washington Square",
        "latitude": 40.731682,
        "longitude": -74.000945,
        "opened_year": 1932,
        "opened_raw": "September 10, 1932",
        "closed_year": null,
        "closed_raw": null,
        "company": "IND",
        "services": "A  \u200bC  \u200bE",
        "notes": "IND Sixth Avenue Line (B  \u200bD  \u200bF  <F>  \u200bM )\nConnection to PATH at Ninth Street"
      },
      {
        "station": "Spring Street",
        "latitude": 40.725502999999996,
        "longitude": -74.004035,
        "opened_year": 1932,
        "opened_raw": "September 10, 1932",
        "closed_year": null,
        "closed_raw": null,
        "company": "IND",
        "services": "A  \u200bC  \u200bE",
        "notes": "Station is ADA-accessible in the southbound direction only."
      },
      {
        "station": "Canal Street",
        "latitude": 40.72186000000001,
        "longitude": -74.005365,
        "opened_year": 1932,
        "opened_raw": "September 10, 1932",
        "closed_year": null,
        "closed_raw": null,
        "company": "IND",
        "services": "A  \u200bC  \u200bE",
        "notes": null
      },
      {
        "station": "Chambers Street",
        "latitude": 40.715517,
        "longitude": -74.009233,
        "opened_year": 1932,
        "opened_raw": "September 10, 1932",
        "closed_year": null,
        "closed_raw": null,
        "company": "IND",
        "services": "A  \u200bC",
        "notes": "two parts of the same station; local tracks end\nBMT Broadway Line (N  \u200bR  \u200bW ) at Cortlandt Street\nIRT Broadway\u2013Seventh Avenue Line (2  \u200b3 ) at Park Place\nConnection to PATH at World Trade Center"
      },
      {
        "station": "World Trade Center",
        "latitude": 40.711787,
        "longitude": -74.010525,
        "opened_year": 1932,
        "opened_raw": "September 10, 1932",
        "closed_year": null,
        "closed_raw": null,
        "company": "IND",
        "services": "E",
        "notes": "two parts of the same station; local tracks end\nBMT Broadway Line (N  \u200bR  \u200bW ) at Cortlandt Street\nIRT Broadway\u2013Seventh Avenue Line (2  \u200b3 ) at Park Place\nConnection to PATH at World Trade Center"
      },
      {
        "station": "Fulton Street",
        "latitude": 40.710277999999995,
        "longitude": -74.007778,
        "opened_year": 1933,
        "opened_raw": "February 1, 1933",
        "closed_year": null,
        "closed_raw": null,
        "company": "IND",
        "services": "A  \u200bC",
        "notes": "formerly Broadway\u2013Nassau Street\nIRT Broadway\u2013Seventh Avenue Line (2  \u200b3 )\nBMT Nassau Street Line (J  \u200bZ )\nIRT Lexington Avenue Line (4  \u200b5 )\nConnection to PATH at World Trade Center"
      },
      {
        "station": "High Street",
        "latitude": 40.6991,
        "longitude": -73.9899,
        "opened_year": 1933,
        "opened_raw": "June 24, 1933",
        "closed_year": null,
        "closed_raw": null,
        "company": "IND",
        "services": "A  \u200bC",
        "notes": "This section of line opened on February 1, 1933; the station opened later."
      }
    ]
  },